FRAME;time.TIME;in_chassis_acceleration.longitudinal;in_chassis_velocity.pitch;cueing_velocity.pitch;cueing_acceleration.longitudinal;cueing_position.pitch;cueing_position.longitudinal;OUT5_XY;OUT6_XY;in_chassis_acceleration.lateral;in_chassis_velocity.roll;cueing_velocity.roll;cueing_acceleration.lateral;cueing_position.roll;cueing_position.lateral;OUT5_XY;OUT6_XY;chassis_velocity.yaw;IN2_ZA;in_cueing_velocity.yaw;cueing_position.yaw;OUT3_ZA;in_chassis_acceleration.vertical;IN2_ZV;cueing_acceleration.vertical;cueing_position.vertical;OUT3_ZV;CYCLE_MICROSECS_YX;CYCLE_MICROSECS_XY;CYCLE_MICROSECS_ZA;CYCLE_MICROSECS_ZV;TOT_TIME;cueing_position.longitudinalHP;cueing_position.longitudinalLP;cueing_position.lateralHP;cueing_position.lateralLP;cueing_position.yawHP;cueing_position.yawLP;actual_velocity.x;actual_velocity.y;actual_velocity.z;actual_velocity.yaw;actual_velocity.pitch;actual_velocity.roll;actual_acc.x;actual_acc.y;actual_acc.z;actual_acc.yaw;actual_acc.pitch;actual_acc.roll;status_xy;status_yx;status_za;status_zv;actT1_lenght;actT1_pos.X;actT1_pos.Y;actT1_pos.Z;actT1_pos.YAW;actT1_pos.PITCH;actT1_pos.ROLL;actT1_pos.PSI;actT1_pos.THETA;actT1_pos.PHI;actT2_lenght;actT2_pos.X;actT2_pos.Y;actT2_pos.Z;actT2_pos.YAW;actT2_pos.PITCH;actT2_pos.ROLL;actT2_pos.PSI;actT2_pos.THETA;actT2_pos.PHI;actT3_lenght;actT3_pos.X;actT3_pos.Y;actT3_pos.Z;actT3_pos.YAW;actT3_pos.PITCH;actT3_pos.ROLL;actT3_pos.PSI;actT3_pos.THETA;actT3_pos.PHI;actH1_lenght;actH1_pos.Xtop;actH1_pos.Ytop;actH1_pos.Ztop;actH1_pos.Xbottom;actH1_pos.Ybottom;actH1_pos.Zbottom;actH1_pos.YAW;actH1_pos.PITCH;actH1_pos.ROLL;actH1_pos.PSI;actH1_pos.THETA;actH1_pos.PHI;actH2_lenght;actH2_pos.Xtop;actH2_pos.Ytop;actH2_pos.Ztop;actH2_pos.Xbottom;actH2_pos.Ybottom;actH2_pos.Zbottom;actH2_pos.YAW;actH2_pos.PITCH;actH2_pos.ROLL;actH2_pos.PSI;actH2_pos.THETA;actH2_pos.PHI;actH3_lenght;actH3_pos.Xtop;actH3_pos.Ytop;actH3_pos.Ztop;actH3_pos.Xbottom;actH3_pos.Ybottom;actH3_pos.Zbottom;actH3_pos.YAW;actH3_pos.PITCH;actH3_pos.ROLL;actH3_pos.PSI;actH3_pos.THETA;actH3_pos.PHI;actH4_lenght;actH4_pos.Xtop;actH4_pos.Ytop;actH4_pos.Ztop;actH4_pos.Xbottom;actH4_pos.Ybottom;actH4_pos.Zbottom;actH4_pos.YAW;actH4_pos.PITCH;actH4_pos.ROLL;actH4_pos.PSI;actH4_pos.THETA;actH4_pos.PHI;actH5_lenght;actH5_pos.Xtop;actH5_pos.Ytop;actH5_pos.Ztop;actH5_pos.Xbottom;actH5_pos.Ybottom;actH5_pos.Zbottom;actH5_pos.YAW;actH5_pos.PITCH;actH5_pos.ROLL;actH5_pos.PSI;actH5_pos.THETA;actH5_pos.PHI;actH6_lenght;actH6_pos.Xtop;actH6_pos.Ytop;actH6_pos.Ztop;actH6_pos.Xbottom;actH6_pos.Ybottom;actH6_pos.Zbottom;actH6_pos.YAW;actH6_pos.PITCH;actH6_pos.ROLL;actH6_pos.PSI;actH6_pos.THETA;actH6_pos.PHI;actH1_pos.PSIs;actH1_pos.THETAs;actH1_pos.PHIs;actH2_pos.PSIs;actH2_pos.THETAs;actH2_pos.PHIs;actH3_pos.PSIs;actH3_pos.THETAs;actH3_pos.PHIs;actH4_pos.PSIs;actH4_pos.THETAs;actH4_pos.PHIs;actH5_pos.PSIs;actH5_pos.THETAs;actH5_pos.PHIs;actH6_pos.PSIs;actH6_pos.THETAs;actH6_pos.PHIs;TripFrame.PSI;TripFrame.THETA;TripFrame.PHI;HexFrame.PSI;HexFrame.THETA;HexFrame.PHI;cueing_position.longitudinalinv;cueing_position.longitudinalHPinv;cueing_position.longitudinalLPinv;cueing_position.yawinv;cueing_position.yawHPinv;cueing_position.yawLPinv;cueing_position.lateralinv;cueing_position.lateralHPinv;cueing_position.lateralLPinv;actT1_pos.Xextern;actT1_pos.Yextern;actT1_pos.Zextern;actT2_pos.Xextern;actT2_pos.Yextern;actT2_pos.Zextern;actT3_pos.Xextern;actT3_pos.Yextern;actT3_pos.Zextern
1;0;-0;0;0.000569009;0.0144661;2.84504e-006;2.26033e-007;0;0.000569009;0;-0;0;0;0;0;0;0;0;0;0;0;0;-0;0;0.0017495;2.7336e-008;1.09344e-005;5731.99;4824.36;4406.36;873.15;15855.8;2.19146e-007;6.88694e-009;0;0;0;0;9.04132e-005;0;1.09344e-005;0;0.000569009;0;0.0180826;0;0.00218688;0;0;0;0;0;0;0;1.2;2.12259e-007;0.194105;-0.381;2.61799;0;0;2.61799;0;0;1.2;0.1681;-0.0970526;-0.381;0.523599;0;0;0.523599;0;0;1.2;-0.1681;-0.0970526;-0.381;-1.5708;0;0;-1.5708;0;0;1.44141;-0.290621;0.75337;1.4755;0.528171;1.16519;0.363;0.466012;0.881686;0;2.03681;0.881686;-1.5708;1.44141;0.797748;0.125;1.4755;0.744998;1.04;0.363;1.62838;0.881687;0;-3.08401;0.881687;-1.5708;1.44141;0.797748;-0.125;1.4755;0.744998;-1.04;0.363;4.6548;0.881687;0;-0.0575865;0.881687;-1.5708;1.44141;-0.290621;-0.75337;1.4755;0.528171;-1.16519;0.363;5.81717;0.881686;0;1.10478;0.881686;-1.5708;1.44141;-0.507128;-0.62837;1.4755;-1.27317;-0.125185;0.363;2.56041;0.881685;0;-2.15198;0.881685;-1.5708;1.44141;-0.507128;0.62837;1.4755;-1.27317;0.125185;0.363;3.72278;0.881685;0;-0.989611;0.881685;-1.5708;2.03681;0.881686;-1.5708;-3.08401;0.881687;-1.5708;-0.0575865;0.881687;-1.5708;1.10478;0.881686;-1.5708;-2.15198;0.881685;-1.5708;-0.989611;0.881685;-1.5708;0;0;0;-1.5708;2.84503e-006;1.5708;-2.26033e-007;-2.19146e-007;-6.88694e-009;-0;-0;-0;-0;-0;-0;-1.03923;0.794105;-0.381;1.20733;0.502947;-0.381;-0.1681;-1.29705;-0.381
2;0.005;0.000817597;0.000107321;0.0197255;0.0144364;0.000101475;9.0413e-007;0.000180826;0.019726;6.16477e-008;-2.0338e-008;-8.39415e-007;4.09774e-007;-4.19707e-009;6.4027e-012;0;-8.39415e-007;-1.9203e-008;1;-1.71608e-008;-8.5804e-011;-1.71608e-008;2.1963e-005;1;0.00193609;1.12273e-007;2.30404e-005;641.358;890.008;242.137;219.916;2007.98;8.63228e-007;4.09019e-008;6.20762e-012;1.95082e-013;-8.48751e-011;-9.28949e-013;0.000180826;2.56108e-009;2.30404e-005;-1.71608e-008;0.019726;-8.39415e-007;0.0180825;5.12216e-007;0.0024212;0;0;0;0;0;0;0;1.2;8.2231e-007;0.194105;-0.381;2.61799;0;0;2.61799;0;0;1.2;0.168101;-0.0970526;-0.381;0.523599;0;0;0.523599;0;0;1.2;-0.168099;-0.0970526;-0.381;-1.5708;0;0;-1.5708;0;0;1.44139;-0.290622;0.75337;1.47547;0.528171;1.16519;0.363;0.466012;0.881673;0;2.03681;0.881673;-1.5708;1.44148;0.797748;0.125;1.47558;0.744998;1.04;0.363;1.62838;0.881722;0;-3.08401;0.881722;-1.5708;1.44148;0.797748;-0.125;1.47558;0.744998;-1.04;0.363;4.6548;0.881722;0;-0.0575858;0.881722;-1.5708;1.44139;-0.290622;-0.75337;1.47547;0.528171;-1.16519;0.363;5.81717;0.881673;0;1.10478;0.881673;-1.5708;1.44137;-0.507128;-0.62837;1.47545;-1.27317;-0.125185;0.363;2.56041;0.881664;0;-2.15198;0.881664;-1.5708;1.44137;-0.507128;0.62837;1.47545;-1.27317;0.125185;0.363;3.72278;0.881664;0;-0.98961;0.881664;-1.5708;2.03681;0.881673;-1.5708;-3.08401;0.881722;-1.5708;-0.0575858;0.881722;-1.5708;1.10478;0.881673;-1.5708;-2.15198;0.881664;-1.5708;-0.98961;0.881664;-1.5708;-9.28949e-013;0;0;-1.57075;0.000101475;1.57075;-9.0413e-007;-8.63228e-007;-4.09019e-008;8.5804e-011;8.48751e-011;9.28949e-013;-6.4027e-012;-6.20762e-012;-1.95082e-013;-1.03923;0.794105;-0.381;1.20733;0.502947;-0.381;-0.1681;-1.29705;-0.381
3;0.01;0.0021076;0.000214096;0.0238122;0.0141734;0.000220631;2.04238e-006;0.000271238;0.0238311;9.39051e-007;-4.67171e-008;-3.0771e-006;6.29953e-006;-1.95865e-008;1.18156e-010;5.12218e-009;-3.07789e-006;-6.43856e-008;2;-6.13203e-008;-3.92486e-010;-6.13363e-008;-0.000131961;2;0.00062669;2.37296e-007;2.69687e-005;583.505;822.577;209.571;200.376;1825.61;1.9142e-006;1.28186e-007;1.14178e-010;3.97834e-012;-3.86407e-010;-6.07837e-012;0.000274475;4.21402e-008;2.69687e-005;-6.13363e-008;0.0238311;-3.07789e-006;0.01873;7.91583e-006;0.000785665;0;0;0;0;0;0;0;1.2;1.78594e-006;0.194105;-0.381;2.61799;0;0;2.61799;0;0;1.2;0.168102;-0.0970526;-0.381;0.5236;0;0;0.5236;0;0;1.2;-0.168098;-0.0970526;-0.381;-1.5708;0;0;-1.5708;0;0;1.44136;-0.290623;0.75337;1.47544;0.528171;1.16519;0.363;0.466011;0.881657;0;2.03681;0.881657;-1.5708;1.44155;0.797746;0.125;1.47568;0.744998;1.04;0.363;1.62838;0.881764;0;-3.08401;0.881764;-1.5708;1.44155;0.797746;-0.125;1.47568;0.744998;-1.04;0.363;4.6548;0.881764;0;-0.0575847;0.881764;-1.5708;1.44136;-0.290623;-0.75337;1.47544;0.528171;-1.16519;0.363;5.81717;0.881657;0;1.10479;0.881657;-1.5708;1.44133;-0.507129;-0.62837;1.47539;-1.27317;-0.125185;0.363;2.56041;0.881638;0;-2.15198;0.881638;-1.5708;1.44133;-0.507129;0.62837;1.47539;-1.27317;0.125185;0.363;3.72278;0.881638;0;-0.98961;0.881638;-1.5708;2.03681;0.881657;-1.5708;-3.08401;0.881764;-1.5708;-0.0575847;0.881764;-1.5708;1.10479;0.881657;-1.5708;-2.15198;0.881638;-1.5708;-0.98961;0.881638;-1.5708;-6.07837e-012;0;0;-1.57071;0.000220631;1.57071;-2.04238e-006;-1.9142e-006;-1.28186e-007;3.92486e-010;3.86407e-010;6.07837e-012;-1.18156e-010;-1.14178e-010;-3.97834e-012;-1.03923;0.794105;-0.381;1.20733;0.502947;-0.381;-0.1681;-1.29705;-0.381
4;0.015;0.00388045;0.000319819;0.0197867;0.0148128;0.000319771;3.67359e-006;0.000368125;0.0198279;2.56023e-006;-8.42681e-008;-5.53647e-006;1.81717e-005;-4.72872e-008;6.15243e-010;8.17195e-008;-5.54013e-006;-1.41697e-007;3;-1.3595e-007;-1.0726e-009;-1.36023e-007;-0.000415542;3;-0.00210024;3.39357e-007;1.38557e-005;542.893;788.862;200.376;202.675;1743.24;3.37906e-006;2.94533e-007;5.89162e-010;2.60817e-011;-1.05085e-009;-2.1752e-011;0.000378009;1.56695e-007;1.38557e-005;-1.36023e-007;0.0198279;-5.54013e-006;0.0207068;2.29109e-005;-0.00262261;0;0;0;0;0;0;0;1.2;3.08433e-006;0.194105;-0.381;2.618;0;0;2.618;0;0;1.2;0.168103;-0.0970526;-0.381;0.5236;0;0;0.5236;0;0;1.2;-0.168097;-0.0970526;-0.381;-1.5708;0;0;-1.5708;0;0;1.44134;-0.290625;0.75337;1.47541;0.528171;1.16519;0.363;0.46601;0.881644;0;2.03681;0.881644;-1.5708;1.44161;0.797745;0.125;1.47576;0.744998;1.04;0.363;1.62838;0.881799;0;-3.08401;0.881799;-1.5708;1.44161;0.797745;-0.125;1.47576;0.744998;-1.04;0.363;4.65481;0.881799;0;-0.057583;0.881799;-1.5708;1.44134;-0.290625;-0.75337;1.47541;0.528171;-1.16519;0.363;5.81717;0.881644;0;1.10479;0.881644;-1.5708;1.44129;-0.507131;-0.62837;1.47534;-1.27317;-0.125185;0.363;2.56041;0.881616;0;-2.15198;0.881616;-1.5708;1.44129;-0.507131;0.62837;1.47534;-1.27317;0.125185;0.363;3.72278;0.881616;0;-0.989609;0.881616;-1.5708;2.03681;0.881644;-1.5708;-3.08401;0.881799;-1.5708;-0.057583;0.881799;-1.5708;1.10479;0.881644;-1.5708;-2.15198;0.881616;-1.5708;-0.989609;0.881616;-1.5708;-2.1752e-011;0;0;-1.57065;0.000319771;1.57065;-3.67359e-006;-3.37906e-006;-2.94533e-007;1.0726e-009;1.05085e-009;2.1752e-011;-6.15243e-010;-5.89162e-010;-2.60817e-011;-1.03923;0.794105;-0.381;1.20733;0.502947;-0.381;-0.1681;-1.29705;-0.381
5;0.02;0.00614345;0.000423849;0.0225741;0.0169498;0.00043294;5.86814e-006;0.000481543;0.0226338;4.64566e-006;-1.39091e-007;-7.88737e-006;3.3146e-005;-8.67682e-008;1.92261e-009;2.7125e-007;-7.8962e-006;-2.61789e-007;4;-2.53472e-007;-2.34096e-009;-2.53672e-007;-0.00075376;4;-0.00505596;3.29653e-007;-1.77372e-005;530.25;775.453;209.188;193.863;1716.8;5.30083e-006;5.6731e-007;1.8208e-009;1.01818e-010;-2.28293e-009;-5.80357e-011;0.000499807;3.66253e-007;-1.77372e-005;-2.53672e-007;0.0226338;-7.8962e-006;0.0243596;4.19117e-005;-0.00631857;0;0;0;0;0;0;0;1.2;4.73308e-006;0.194105;-0.381;2.618;0;0;2.618;0;0;1.2;0.168105;-0.0970526;-0.381;0.523601;0;0;0.523601;0;0;1.2;-0.168095;-0.0970526;-0.381;-1.5708;0;0;-1.5708;0;0;1.44132;-0.290627;0.75337;1.47537;0.528171;1.16519;0.363;0.466009;0.881628;0;2.03681;0.881628;-1.5708;1.44168;0.797743;0.125;1.47585;0.744997;1.04;0.363;1.62838;0.881839;0;-3.08401;0.881839;-1.5708;1.44168;0.797743;-0.125;1.47585;0.744997;-1.04;0.363;4.65481;0.881839;0;-0.0575809;0.881839;-1.5708;1.44132;-0.290627;-0.75337;1.47537;0.528171;-1.16519;0.363;5.81718;0.881628;0;1.10479;0.881628;-1.5708;1.44124;-0.507133;-0.62837;1.47528;-1.27317;-0.125185;0.363;2.5604;0.881592;0;-2.15199;0.881592;-1.5708;1.44124;-0.507133;0.62837;1.47528;-1.27317;0.125185;0.363;3.72278;0.881592;0;-0.989608;0.881592;-1.5708;2.03681;0.881628;-1.5708;-3.08401;0.881839;-1.5708;-0.0575809;0.881839;-1.5708;1.10479;0.881628;-1.5708;-2.15199;0.881592;-1.5708;-0.989608;0.881592;-1.5708;-5.80357e-011;0;0;-1.5706;0.00043294;1.5706;-5.86814e-006;-5.30083e-006;-5.6731e-007;2.34096e-009;2.28293e-009;5.80357e-011;-1.92261e-009;-1.8208e-009;-1.01818e-010;-1.03923;0.794105;-0.381;1.20733;0.502947;-0.381;-0.168101;-1.29705;-0.381
6;0.025;0.00894117;0.0005254;0.019128;0.0209703;0.000528984;8.74849e-006;0.000621605;0.0192088;7.49031e-006;-2.18125e-007;-1.11547e-005;5.36488e-005;-1.42623e-007;4.60323e-009;5.75813e-007;-1.11709e-005;-4.32285e-007;5;-4.20241e-007;-4.44435e-009;-4.20678e-007;-0.00119122;5;-0.00887592;1.02258e-007;-7.32206e-005;531.782;781.966;195.779;202.675;1719.86;7.7704e-006;9.7809e-007;4.30878e-009;2.94447e-010;-4.31465e-009;-1.29701e-010;0.000652335;7.05994e-007;-7.32206e-005;-4.20678e-007;0.0192088;-1.11709e-005;0.0305056;6.79481e-005;-0.0110967;0;0;0;0;0;0;0;1.20001;6.7915e-006;0.194105;-0.381;2.618;0;0;2.618;0;0;1.19999;0.168107;-0.0970526;-0.381;0.523602;0;0;0.523602;0;0;1.2;-0.168093;-0.0970526;-0.381;-1.5708;0;0;-1.5708;0;0;1.4413;-0.29063;0.75337;1.47535;0.52817;1.16519;0.363;0.466008;0.881615;0;2.0368;0.881615;-1.5708;1.44174;0.79774;0.125;1.47592;0.744997;1.04;0.363;1.62837;0.881872;0;-3.08401;0.881872;-1.5708;1.44174;0.79774;-0.125;1.47592;0.744997;-1.04;0.363;4.65481;0.881872;0;-0.0575782;0.881872;-1.5708;1.4413;-0.29063;-0.75337;1.47535;0.52817;-1.16519;0.363;5.81718;0.881614;0;1.10479;0.881614;-1.5708;1.4412;-0.507136;-0.62837;1.47523;-1.27317;-0.125185;0.363;2.5604;0.881571;0;-2.15199;0.881571;-1.5708;1.4412;-0.507136;0.62837;1.47523;-1.27317;0.125185;0.363;3.72278;0.881571;0;-0.989606;0.881571;-1.5708;2.0368;0.881615;-1.5708;-3.08401;0.881872;-1.5708;-0.0575782;0.881872;-1.5708;1.10479;0.881614;-1.5708;-2.15199;0.881571;-1.5708;-0.989606;0.881571;-1.5708;-1.29701e-010;0;0;-1.57053;0.000528984;1.57053;-8.74849e-006;-7.7704e-006;-9.7809e-007;4.44435e-009;4.31465e-009;1.29701e-010;-4.60323e-009;-4.30878e-009;-2.94447e-010;-1.03923;0.794105;-0.381;1.20733;0.502947;-0.381;-0.168101;-1.29705;-0.381
7;0.03;0.0125167;0.000623528;0.0205229;0.0274111;0.000632092;1.25041e-005;0.000804863;0.0206216;1.01718e-005;-3.29076e-007;-1.59219e-005;7.35562e-005;-2.22365e-007;9.30087e-009;1.04574e-006;-1.59485e-005;-6.74394e-007;6;-6.56957e-007;-7.73329e-009;-6.57787e-007;-0.00152843;6;-0.01166;-4.46124e-007;-0.000146132;530.633;772.387;199.993;193.097;1703.77;1.0938e-005;1.56603e-006;8.60072e-009;7.00145e-010;-7.47576e-009;-2.57529e-010;0.000849894;1.17306e-006;-0.000146132;-6.57787e-007;0.0206216;-1.59485e-005;0.0395117;9.34135e-005;-0.0145824;0;0;0;0;0;0;0;1.20001;9.37061e-006;0.194105;-0.381;2.618;0;0;2.618;0;0;1.19999;0.168109;-0.0970526;-0.381;0.523603;0;0;0.523603;0;0;1.2;-0.168091;-0.0970526;-0.381;-1.57081;0;0;-1.57081;0;0;1.44128;-0.290634;0.75337;1.47532;0.52817;1.16519;0.363;0.466007;0.8816;0;2.0368;0.8816;-1.5708;1.4418;0.797736;0.125;1.476;0.744996;1.04;0.363;1.62837;0.881909;0;-3.08402;0.881909;-1.5708;1.4418;0.797736;-0.125;1.476;0.744996;-1.04;0.363;4.65481;0.881908;0;-0.0575747;0.881908;-1.5708;1.44128;-0.290634;-0.75337;1.47532;0.52817;-1.16519;0.363;5.81718;0.881599;0;1.10479;0.881599;-1.5708;1.44116;-0.50714;-0.62837;1.47518;-1.27317;-0.125185;0.363;2.5604;0.881549;0;-2.15199;0.881549;-1.5708;1.44116;-0.50714;0.62837;1.47518;-1.27317;0.125185;0.363;3.72278;0.881549;0;-0.989604;0.881549;-1.5708;2.0368;0.8816;-1.5708;-3.08402;0.881909;-1.5708;-0.0575747;0.881908;-1.5708;1.10479;0.881599;-1.5708;-2.15199;0.881549;-1.5708;-0.989604;0.881549;-1.5708;-2.57529e-010;0;0;-1.57044;0.000632092;1.57044;-1.25041e-005;-1.0938e-005;-1.56603e-006;7.73329e-009;7.47576e-009;2.57529e-010;-9.30087e-009;-8.60072e-009;-7.00145e-010;-1.03923;0.794105;-0.381;1.20733;0.502947;-0.381;-0.168102;-1.29705;-0.381
8;0.035;0.016936;0.000717154;0.0173307;0.0367044;0.000719335;1.74055e-005;0.00104745;0.0174486;1.45784e-005;-4.79706e-007;-2.23031e-005;0.000103934;-3.34088e-007;1.68188e-008;1.64014e-006;-2.23446e-005;-9.85319e-007;7;-9.63746e-007;-1.25592e-008;-9.6519e-007;-0.00215846;7;-0.0166157;-1.43659e-006;-0.000250054;523.737;794.609;218;208.039;1752.81;1.50236e-005;2.3819e-006;1.53655e-008;1.45331e-009;-1.209e-008;-4.69258e-010;0.00111068;1.83413e-006;-0.000250054;-9.6519e-007;0.0174486;-2.23446e-005;0.0521567;0.000132214;-0.0207842;0;0;0;0;0;0;0;1.20001;1.26394e-005;0.194105;-0.381;2.618;0;0;2.618;0;0;1.19999;0.168113;-0.0970526;-0.381;0.523605;0;0;0.523605;0;0;1.2;-0.168087;-0.0970526;-0.381;-1.57081;0;0;-1.57081;0;0;1.44126;-0.290638;0.75337;1.47529;0.528169;1.16519;0.363;0.466005;0.881586;0;2.0368;0.881586;-1.5708;1.44185;0.797731;0.125;1.47607;0.744996;1.04;0.363;1.62837;0.881939;0;-3.08402;0.881939;-1.5708;1.44185;0.797731;-0.125;1.47607;0.744996;-1.04;0.363;4.65482;0.881939;0;-0.0575702;0.881939;-1.5708;1.44126;-0.290638;-0.75337;1.47529;0.528169;-1.16519;0.363;5.81718;0.881586;0;1.10479;0.881586;-1.5708;1.44112;-0.507145;-0.62837;1.47513;-1.27317;-0.125185;0.363;2.5604;0.881531;0;-2.15199;0.881531;-1.5708;1.44112;-0.507145;0.62837;1.47513;-1.27317;0.125185;0.363;3.72279;0.881531;0;-0.989602;0.881531;-1.5708;2.0368;0.881586;-1.5708;-3.08402;0.881939;-1.5708;-0.0575702;0.881939;-1.5708;1.10479;0.881586;-1.5708;-2.15199;0.881531;-1.5708;-0.989602;0.881531;-1.5708;-4.69258e-010;0;0;-1.57033;0.000719335;1.57033;-1.74055e-005;-1.50236e-005;-2.3819e-006;1.25592e-008;1.209e-008;4.69258e-010;-1.68188e-008;-1.53655e-008;-1.45331e-009;-1.03923;0.794105;-0.381;1.20733;0.502947;-0.381;-0.168102;-1.29705;-0.381
9;0.04;0.0225675;0.00080505;0.0172772;0.0494847;0.000806392;2.38215e-005;0.00137146;0.0174113;1.74245e-005;-6.78076e-007;-3.02735e-005;0.000126937;-4.85768e-007;2.80161e-008;2.49521e-006;-3.03359e-005;-1.40449e-006;8;-1.37277e-006;-1.94348e-008;-1.37511e-006;-0.00238957;8;-0.0186269;-2.97821e-006;-0.000366596;557.069;882.729;237.923;221.448;1907.98;2.03286e-005;3.49289e-006;2.52853e-008;2.73082e-009;-1.86337e-008;-8.01123e-010;0.00145573;2.64477e-006;-0.000366596;-1.37511e-006;0.0174113;-3.03359e-005;0.0690105;0.000162127;-0.0233086;0;0;0;0;0;0;0;1.20002;1.68323e-005;0.194105;-0.381;2.618;0;0;2.618;0;0;1.19998;0.168117;-0.0970526;-0.381;0.523607;0;0;0.523607;0;0;1.2;-0.168083;-0.0970526;-0.381;-1.57081;0;0;-1.57081;0;0;1.44124;-0.290645;0.75337;1.47526;0.528168;1.16519;0.363;0.466002;0.881572;0;2.0368;0.881572;-1.5708;1.44191;0.797724;0.125;1.47614;0.744995;1.04;0.363;1.62836;0.881969;0;-3.08403;0.881969;-1.5708;1.44191;0.797724;-0.125;1.47614;0.744995;-1.04;0.363;4.65482;0.881969;0;-0.0575643;0.881969;-1.5708;1.44124;-0.290645;-0.75337;1.47526;0.528168;-1.16519;0.363;5.81718;0.881571;0;1.10479;0.881571;-1.5708;1.44108;-0.507151;-0.62837;1.47509;-1.27317;-0.125185;0.363;2.5604;0.881513;0;-2.15199;0.881513;-1.5708;1.44108;-0.507151;0.62837;1.47509;-1.27317;0.125185;0.363;3.72279;0.881513;0;-0.989599;0.881513;-1.5708;2.0368;0.881572;-1.5708;-3.08403;0.881969;-1.5708;-0.0575643;0.881969;-1.5708;1.10479;0.881571;-1.5708;-2.15199;0.881513;-1.5708;-0.989599;0.881513;-1.5708;-8.01123e-010;0;0;-1.57019;0.000806392;1.57019;-2.38215e-005;-2.03286e-005;-3.49289e-006;1.94348e-008;1.86337e-008;8.01123e-010;-2.80161e-008;-2.52853e-008;-2.73082e-009;-1.03923;0.794105;-0.381;1.20733;0.502947;-0.381;-0.168104;-1.29705;-0.381
10;0.045;0.02904;0.000885866;0.0139937;0.0663474;0.000877111;3.22373e-005;0.00180078;0.0141439;2.39795e-005;-9.3156e-007;-3.97991e-005;0.000169109;-6.85216e-007;4.3945e-008;3.45544e-006;-3.98898e-005;-1.90572e-006;9;-1.87101e-006;-2.8808e-008;-1.87464e-006;-0.0033424;9;-0.0253927;-5.20842e-006;-0.000525484;582.356;831.006;209.954;201.909;1833.27;2.72492e-005;4.98809e-006;3.91881e-008;4.75697e-009;-2.75094e-008;-1.29864e-009;0.0019106;3.7268e-006;-0.000525484;-1.87464e-006;0.0141439;-3.98898e-005;0.0909736;0.000216407;-0.0317774;0;0;0;0;0;0;0;1.20002;2.22561e-005;0.194105;-0.381;2.61801;0;0;2.61801;0;0;1.19998;0.168122;-0.0970526;-0.381;0.52361;0;0;0.52361;0;0;1.2;-0.168078;-0.0970526;-0.381;-1.57082;0;0;-1.57082;0;0;1.44123;-0.290653;0.75337;1.47524;0.528166;1.16519;0.363;0.465999;0.881558;0;2.0368;0.881558;-1.5708;1.44195;0.797716;0.125;1.47619;0.744993;1.04;0.363;1.62835;0.881993;0;-3.08404;0.881993;-1.5708;1.44195;0.797716;-0.125;1.47619;0.744993;-1.04;0.363;4.65483;0.881993;0;-0.0575568;0.881993;-1.5708;1.44123;-0.290653;-0.753371;1.47524;0.528166;-1.16519;0.363;5.81719;0.881558;0;1.1048;0.881558;-1.5708;1.44105;-0.507159;-0.62837;1.47505;-1.27317;-0.125185;0.363;2.56039;0.881499;0;-2.152;0.881499;-1.5708;1.44105;-0.507159;0.62837;1.47505;-1.27317;0.125185;0.363;3.72279;0.8815;0;-0.989595;0.8815;-1.5708;2.0368;0.881558;-1.5708;-3.08404;0.881993;-1.5708;-0.0575568;0.881993;-1.5708;1.1048;0.881558;-1.5708;-2.152;0.881499;-1.5708;-0.989595;0.8815;-1.5708;-1.29864e-009;0;0;-1.57002;0.000877112;1.57002;-3.22373e-005;-2.72492e-005;-4.98809e-006;2.8808e-008;2.75094e-008;1.29864e-009;-4.3945e-008;-3.91881e-008;-4.75697e-009;-1.03924;0.794105;-0.381;1.20733;0.502947;-0.381;-0.168105;-1.29705;-0.381
11;0.05;0.0366615;0.000958143;0.0124435;0.0879499;0.000940146;4.32742e-005;0.00236547;0.0126069;2.62599e-005;-1.24692e-006;-5.08014e-005;0.000192449;-9.39863e-007;6.56745e-008;4.80891e-006;-5.09293e-005;-2.5557e-006;10;-2.50359e-006;-4.13528e-008;-2.50896e-006;-0.00332181;10;-0.0260138;-8.24295e-006;-0.000688332;543.276;790.394;200.759;203.824;1747.07;3.62894e-005;6.98487e-006;5.78675e-008;7.80706e-009;-3.93348e-008;-2.01806e-009;0.00250416;4.96501e-006;-0.000688332;-2.50896e-006;0.0126069;-5.09293e-005;0.118712;0.000247642;-0.0325696;0;0;0;0;0;0;0;1.20003;2.92972e-005;0.194105;-0.381;2.61801;0;0;2.61801;0;0;1.19997;0.168129;-0.0970525;-0.381;0.523614;0;0;0.523614;0;0;1.2;-0.168071;-0.0970526;-0.381;-1.57083;0;0;-1.57083;0;0;1.44122;-0.290664;0.75337;1.47522;0.528164;1.16519;0.363;0.465994;0.881545;0;2.03679;0.881545;-1.5708;1.44198;0.797705;0.125;1.47624;0.744991;1.04;0.363;1.62834;0.882014;0;-3.08405;0.882014;-1.5708;1.44198;0.797705;-0.125;1.47624;0.744991;-1.04;0.363;4.65484;0.882014;0;-0.0575469;0.882014;-1.5708;1.44122;-0.290664;-0.753371;1.47522;0.528164;-1.16519;0.363;5.81719;0.881544;0;1.1048;0.881544;-1.5708;1.44102;-0.507171;-0.628371;1.47501;-1.27318;-0.125185;0.363;2.56039;0.881488;0;-2.152;0.881488;-1.5708;1.44102;-0.50717;0.62837;1.47502;-1.27318;0.125185;0.363;3.7228;0.881488;0;-0.989589;0.881488;-1.5708;2.03679;0.881545;-1.5708;-3.08405;0.882014;-1.5708;-0.0575469;0.882014;-1.5708;1.1048;0.881544;-1.5708;-2.152;0.881488;-1.5708;-0.989589;0.881488;-1.5708;-2.01806e-009;0;0;-1.5698;0.000940146;1.5698;-4.32742e-005;-3.62894e-005;-6.98487e-006;4.13528e-008;3.93348e-008;2.01806e-009;-6.56745e-008;-5.78675e-008;-7.80706e-009;-1.03924;0.794105;-0.381;1.20732;0.502947;-0.381;-0.168107;-1.29705;-0.381
12;0.055;0.0443721;0.00102034;0.00873054;0.114704;0.000984673;5.77053e-005;0.00309772;0.00890553;3.51187e-005;-1.62924e-006;-6.31088e-005;0.000244093;-1.25628e-006;9.44347e-008;6.20335e-006;-6.32841e-005;-3.28453e-006;11;-3.23365e-006;-5.75596e-008;-3.24136e-006;-0.0046346;11;-0.0340775;-1.22179e-005;-0.00090166;539.062;800.739;202.292;198.844;1749.37;4.80694e-005;9.63595e-006;8.22252e-008;1.22096e-008;-5.45331e-008;-3.0265e-009;0.00326829;6.53906e-006;-0.00090166;-3.24136e-006;0.00890553;-6.32841e-005;0.152827;0.00031481;-0.0426656;0;0;0;0;0;0;0;1.20004;3.84234e-005;0.194105;-0.381;2.61801;0;0;2.61801;0;0;1.19996;0.168138;-0.0970525;-0.381;0.523619;0;0;0.523619;0;0;1.2;-0.168062;-0.0970525;-0.381;-1.57084;0;0;-1.57084;0;0;1.44121;-0.290679;0.75337;1.4752;0.528162;1.16519;0.363;0.465989;0.881532;0;2.03678;0.881532;-1.5708;1.44201;0.79769;0.125;1.47627;0.744988;1.04;0.363;1.62833;0.882028;0;-3.08406;0.882028;-1.5708;1.44201;0.79769;-0.125;1.47627;0.744988;-1.04;0.363;4.65485;0.882028;0;-0.057534;0.882028;-1.5708;1.44121;-0.290679;-0.753371;1.4752;0.528162;-1.16519;0.363;5.8172;0.881531;0;1.10481;0.881531;-1.5708;1.44099;-0.507185;-0.628371;1.47499;-1.27318;-0.125185;0.363;2.56038;0.881481;0;-2.15201;0.881481;-1.5708;1.44099;-0.507185;0.62837;1.47499;-1.27318;0.125185;0.363;3.72281;0.881482;0;-0.989582;0.881482;-1.5708;2.03678;0.881532;-1.5708;-3.08406;0.882028;-1.5708;-0.057534;0.882028;-1.5708;1.10481;0.881531;-1.5708;-2.15201;0.881481;-1.5708;-0.989582;0.881482;-1.5708;-3.0265e-009;0;0;-1.56952;0.000984674;1.56952;-5.77053e-005;-4.80694e-005;-9.63595e-006;5.75596e-008;5.45331e-008;3.0265e-009;-9.44347e-008;-8.22252e-008;-1.22096e-008;-1.03924;0.794105;-0.381;1.20732;0.502947;-0.381;-0.16811;-1.29705;-0.381
13;0.06;0.0526502;0.00107095;0.00567931;0.146742;0.00101399;7.64641e-005;0.00403243;0.00586248;3.57547e-005;-2.08146e-006;-7.64195e-005;0.000263259;-1.63955e-006;1.31405e-007;8.11335e-006;-7.66539e-005;-4.18943e-006;12;-4.11173e-006;-7.8172e-008;-4.12247e-006;-0.00416637;12;-0.0324624;-1.72346e-005;-0.001105;538.679;783.498;195.779;198.844;1724.85;6.33273e-005;1.31367e-005;1.13059e-007;1.83467e-008;-7.37696e-008;-4.40237e-009;0.00423521;8.24915e-006;-0.001105;-4.12247e-006;0.00586248;-7.66539e-005;0.193383;0.000342017;-0.0406679;0;0;0;0;0;0;0;1.20005;5.01772e-005;0.194105;-0.381;2.61802;0;0;2.61802;0;0;1.19995;0.16815;-0.0970525;-0.381;0.523625;0;0;0.523625;0;0;1.2;-0.16805;-0.0970525;-0.381;-1.57085;0;0;-1.57085;0;0;1.44121;-0.290697;0.75337;1.47519;0.528158;1.16519;0.363;0.465981;0.881519;0;2.03678;0.881519;-1.5708;1.44202;0.797672;0.125;1.47629;0.744985;1.04;0.363;1.62831;0.882037;0;-3.08408;0.882037;-1.5708;1.44202;0.797672;-0.125;1.47629;0.744985;-1.04;0.363;4.65487;0.882037;0;-0.0575173;0.882037;-1.5708;1.44121;-0.290697;-0.753371;1.47519;0.528158;-1.16519;0.363;5.8172;0.881518;0;1.10482;0.881518;-1.5708;1.44097;-0.507204;-0.628371;1.47497;-1.27318;-0.125185;0.363;2.56037;0.881479;0;-2.15202;0.881479;-1.5708;1.44097;-0.507204;0.62837;1.47497;-1.27318;0.125185;0.363;3.72282;0.88148;0;-0.989573;0.88148;-1.5708;2.03678;0.881519;-1.5708;-3.08408;0.882037;-1.5708;-0.0575173;0.882037;-1.5708;1.10482;0.881518;-1.5708;-2.15202;0.881479;-1.5708;-0.989573;0.88148;-1.5708;-4.40237e-009;0;0;-1.56918;0.00101399;1.56918;-7.64641e-005;-6.33273e-005;-1.31367e-005;7.8172e-008;7.37696e-008;4.40237e-009;-1.31405e-007;-1.13059e-007;-1.83467e-008;-1.03924;0.794105;-0.381;1.20732;0.502947;-0.381;-0.168113;-1.29705;-0.381
14;0.065;0.060003;0.00110842;0.00131864;0.183716;0.00102152;0.00010064;0.00520212;0.00150712;4.64882e-005;-2.60387e-006;-9.02992e-005;0.000317263;-2.09258e-006;1.77819e-007;9.95964e-006;-9.0605e-005;-5.13848e-006;13;-5.07044e-006;-1.03597e-007;-5.08502e-006;-0.00579194;13;-0.0404519;-2.3393e-005;-0.00135837;529.484;794.226;205.74;197.694;1735.57;8.29075e-005;1.77323e-005;1.51169e-007;2.66504e-008;-9.7363e-008;-6.2341e-009;0.0054351;1.03163e-005;-0.00135837;-5.08502e-006;0.00150712;-9.0605e-005;0.239979;0.000413436;-0.050675;0;0;0;0;0;0;0;1.20007;6.51575e-005;0.194105;-0.381;2.61803;0;0;2.61803;0;0;1.19993;0.168165;-0.0970525;-0.381;0.523633;0;0;0.523633;0;0;1.2;-0.168035;-0.0970525;-0.381;-1.57087;0;0;-1.57087;0;0;1.44121;-0.290721;0.75337;1.47518;0.528154;1.16519;0.363;0.465972;0.881506;0;2.03677;0.881506;-1.5708;1.44202;0.797647;0.125;1.47629;0.74498;1.04;0.363;1.62829;0.882038;0;-3.0841;0.882038;-1.5708;1.44202;0.797647;-0.125;1.47629;0.74498;-1.04;0.363;4.65489;0.882038;0;-0.057496;0.882038;-1.5708;1.44121;-0.290722;-0.753371;1.47518;0.528154;-1.16519;0.363;5.81721;0.881504;0;1.10483;0.881504;-1.5708;1.44095;-0.507228;-0.628371;1.47496;-1.27319;-0.125185;0.363;2.56036;0.881483;0;-2.15203;0.881483;-1.5708;1.44095;-0.507228;0.62837;1.47496;-1.27319;0.125185;0.363;3.72283;0.881485;0;-0.989561;0.881485;-1.5708;2.03677;0.881506;-1.5708;-3.0841;0.882038;-1.5708;-0.057496;0.882038;-1.5708;1.10483;0.881504;-1.5708;-2.15203;0.881483;-1.5708;-0.989561;0.881485;-1.5708;-6.2341e-009;0;0;-1.56875;0.00102152;1.56875;-0.00010064;-8.29075e-005;-1.77323e-005;1.03597e-007;9.7363e-008;6.2341e-009;-1.77819e-007;-1.51169e-007;-2.66504e-008;-1.03925;0.794105;-0.381;1.20731;0.502947;-0.381;-0.168118;-1.29705;-0.381
15;0.07;0.0675856;0.00113139;-0.00308287;0.224751;0.00100706;0.000131459;0.006635;-0.00289315;4.49606e-005;-3.19357e-006;-0.000104207;0.000331458;-2.61557e-006;2.34848e-007;1.23842e-005;-0.000104598;-6.23935e-006;14;-6.1361e-006;-1.34374e-007;-6.15543e-006;-0.00491622;14;-0.0379366;-3.07793e-005;-0.00159615;537.913;775.836;195.779;192.714;1709.9;0.000107735;2.37235e-005;1.97249e-007;3.75998e-008;-1.25757e-007;-8.61763e-009;0.00689241;1.24954e-005;-0.00159615;-6.15543e-006;-0.00289315;-0.000104598;0.291462;0.000435806;-0.0475561;0;0;0;0;0;0;0;1.20009;8.39888e-005;0.194105;-0.381;2.61804;0;0;2.61804;0;0;1.19991;0.168184;-0.0970524;-0.381;0.523644;0;0;0.523644;0;0;1.2;-0.168016;-0.0970525;-0.381;-1.57089;0;0;-1.57089;0;0;1.44123;-0.290752;0.75337;1.47518;0.528148;1.16519;0.363;0.465959;0.881493;0;2.03676;0.881493;-1.5708;1.44201;0.797617;0.125;1.47627;0.744974;1.04;0.363;1.62827;0.88203;0;-3.08412;0.88203;-1.5708;1.44201;0.797617;-0.125;1.47627;0.744974;-1.04;0.363;4.65492;0.88203;0;-0.057469;0.88203;-1.5708;1.44122;-0.290752;-0.753371;1.47517;0.528148;-1.16519;0.363;5.81723;0.881491;0;1.10484;0.881491;-1.5708;1.44094;-0.507259;-0.628371;1.47496;-1.27319;-0.125185;0.363;2.56034;0.881494;0;-2.15205;0.881494;-1.5708;1.44094;-0.507259;0.62837;1.47496;-1.27319;0.125185;0.363;3.72284;0.881496;0;-0.989547;0.881496;-1.5708;2.03676;0.881493;-1.5708;-3.08412;0.88203;-1.5708;-0.057469;0.88203;-1.5708;1.10484;0.881491;-1.5708;-2.15205;0.881494;-1.5708;-0.989547;0.881496;-1.5708;-8.61763e-009;0;0;-1.5682;0.00100706;1.5682;-0.000131459;-0.000107735;-2.37235e-005;1.34374e-007;1.25757e-007;8.61763e-009;-2.34848e-007;-1.97249e-007;-3.75998e-008;-1.03925;0.794105;-0.381;1.20731;0.502947;-0.381;-0.168124;-1.29705;-0.381
16;0.075;0.0738968;0.00113848;-0.00808837;0.268918;0.000967548;0.000170254;0.00834972;-0.00790152;5.6895e-005;-3.84684e-006;-0.000117623;0.000380151;-3.20612e-006;3.036e-007;1.46755e-005;-0.000118111;-7.31405e-006;15;-7.23098e-006;-1.70654e-007;-7.25604e-006;-0.00700689;15;-0.0466528;-3.9491e-005;-0.00188853;524.886;774.686;193.863;195.779;1698.03;0.000138783;3.14707e-005;2.51887e-007;5.17144e-008;-1.59001e-007;-1.16534e-008;0.00862576;1.50053e-005;-0.00188853;-7.25604e-006;-0.00790152;-0.000118111;0.346669;0.000501988;-0.0584749;0;0;0;0;0;0;0;1.20012;0.000107284;0.194105;-0.381;2.61805;0;0;2.61805;0;0;1.19988;0.168207;-0.0970524;-0.381;0.523656;0;0;0.523656;0;0;1.2;-0.167993;-0.0970524;-0.381;-1.57091;0;0;-1.57091;0;0;1.44125;-0.290791;0.75337;1.47518;0.52814;1.16519;0.363;0.465944;0.881479;0;2.03674;0.881479;-1.5708;1.44197;0.797578;0.125;1.47623;0.744967;1.04;0.363;1.62823;0.882013;0;-3.08416;0.882013;-1.5708;1.44197;0.797578;-0.125;1.47623;0.744967;-1.04;0.363;4.65495;0.882013;0;-0.0574352;0.882013;-1.5708;1.44124;-0.290791;-0.753371;1.47518;0.52814;-1.16519;0.363;5.81724;0.881477;0;1.10485;0.881477;-1.5708;1.44093;-0.507298;-0.628371;1.47497;-1.2732;-0.125185;0.363;2.56032;0.881513;0;-2.15207;0.881513;-1.5708;1.44093;-0.507297;0.62837;1.47497;-1.2732;0.125185;0.363;3.72286;0.881515;0;-0.989528;0.881515;-1.5708;2.03674;0.881479;-1.5708;-3.08416;0.882013;-1.5708;-0.0574352;0.882013;-1.5708;1.10485;0.881477;-1.5708;-2.15207;0.881513;-1.5708;-0.989528;0.881515;-1.5708;-1.16534e-008;0;0;-1.56748;0.000967553;1.56748;-0.000170254;-0.000138783;-3.14707e-005;1.70654e-007;1.59001e-007;1.16534e-008;-3.036e-007;-2.51887e-007;-5.17144e-008;-1.03926;0.794105;-0.381;1.2073;0.502947;-0.381;-0.168132;-1.29705;-0.381
17;0.08;0.081061;0.00112857;-0.0135214;0.31499;0.000900837;0.000218433;0.0103591;-0.0133421;5.21194e-005;-4.55379e-006;-0.000130005;0.000383742;-3.85913e-006;3.85032e-007;1.7517e-005;-0.000130603;-8.55331e-006;16;-8.42051e-006;-2.12916e-007;-8.45233e-006;-0.00574939;16;-0.0442612;-4.96276e-005;-0.0021661;528.718;770.855;206.506;203.824;1717.95;0.000177038;4.13958e-005;3.1549e-007;6.95448e-008;-1.9747e-007;-1.54457e-008;0.010646;1.75677e-005;-0.0021661;-8.45233e-006;-0.0133421;-0.000130603;0.40404;0.000512478;-0.0555146;0;0;0;0;0;0;0;1.20015;0.000135606;0.194105;-0.381;2.61807;0;0;2.61807;0;0;1.19985;0.168236;-0.0970523;-0.381;0.523672;0;0;0.523672;0;0;1.2;-0.167964;-0.0970524;-0.381;-1.57094;0;0;-1.57094;0;0;1.44128;-0.290839;0.75337;1.47519;0.52813;1.16519;0.363;0.465926;0.881465;0;2.03672;0.881465;-1.5708;1.44192;0.79753;0.124999;1.47617;0.744957;1.04;0.363;1.62819;0.881986;0;-3.0842;0.881986;-1.5708;1.44192;0.79753;-0.125001;1.47617;0.744957;-1.04;0.363;4.655;0.881986;0;-0.0573936;0.881986;-1.5708;1.44127;-0.29084;-0.753371;1.47519;0.52813;-1.16519;0.363;5.81726;0.881463;0;1.10487;0.881463;-1.5708;1.44093;-0.507346;-0.628371;1.47499;-1.27321;-0.125185;0.363;2.5603;0.881541;0;-2.15209;0.881541;-1.5708;1.44093;-0.507346;0.62837;1.475;-1.27321;0.125185;0.363;3.72288;0.881543;0;-0.989505;0.881543;-1.5708;2.03672;0.881465;-1.5708;-3.0842;0.881986;-1.5708;-0.0573936;0.881986;-1.5708;1.10487;0.881463;-1.5708;-2.15209;0.881541;-1.5708;-0.989505;0.881543;-1.5708;-1.54457e-008;0;0;-1.56651;0.000900846;1.56651;-0.000218433;-0.000177038;-4.13958e-005;2.12916e-007;1.9747e-007;1.54457e-008;-3.85032e-007;-3.1549e-007;-6.95448e-008;-1.03927;0.794105;-0.381;1.20729;0.502947;-0.381;-0.168141;-1.29705;-0.381
18;0.085;0.0877565;0.00110043;-0.0190108;0.362042;0.000806617;0.000277443;0.0126662;-0.0188441;6.3532e-005;-5.30374e-006;-0.000140681;0.000412923;-4.56613e-006;4.79815e-007;2.01328e-005;-0.0001414;-9.70354e-006;17;-9.60555e-006;-2.61142e-007;-9.64524e-006;-0.00800927;17;-0.0505025;-6.12499e-005;-0.00248282;561.667;819.129;234.858;219.916;1845.53;0.000223461;5.39819e-005;3.88162e-007;9.16577e-008;-2.41042e-007;-2.01002e-008;0.0129579;2.03455e-005;-0.00248282;-9.64524e-006;-0.0188441;-0.0001414;0.462396;0.000555563;-0.0633438;0;0;0;0;0;0;0;1.20019;0.000169436;0.194105;-0.381;2.61809;0;0;2.61809;0;0;1.19981;0.16827;-0.0970523;-0.381;0.523692;0;0;0.523692;0;0;1.2;-0.167931;-0.0970523;-0.381;-1.57098;0;0;-1.57098;0;0;1.44131;-0.290898;0.75337;1.47521;0.528117;1.16519;0.363;0.465903;0.88145;0;2.0367;0.88145;-1.5708;1.44186;0.797471;0.124999;1.47608;0.744944;1.04;0.363;1.62814;0.88195;0;-3.08425;0.88195;-1.5708;1.44185;0.797471;-0.125001;1.47608;0.744944;-1.04;0.363;4.65505;0.88195;0;-0.0573431;0.88195;-1.5708;1.44131;-0.290899;-0.753371;1.4752;0.528117;-1.16519;0.363;5.81728;0.881447;0;1.10489;0.881447;-1.5708;1.44093;-0.507405;-0.628371;1.47503;-1.27322;-0.125185;0.363;2.56027;0.881577;0;-2.15212;0.881577;-1.5708;1.44093;-0.507405;0.62837;1.47503;-1.27322;0.125185;0.363;3.72291;0.88158;0;-0.989477;0.88158;-1.5708;2.0367;0.88145;-1.5708;-3.08425;0.88195;-1.5708;-0.0573431;0.88195;-1.5708;1.10489;0.881447;-1.5708;-2.15212;0.881577;-1.5708;-0.989477;0.88158;-1.5708;-2.01002e-008;0;0;-1.56514;0.00080663;1.56514;-0.000277443;-0.000223461;-5.39819e-005;2.61142e-007;2.41042e-007;2.01002e-008;-4.79815e-007;-3.88162e-007;-9.16577e-008;-1.03928;0.794105;-0.381;1.20728;0.502947;-0.381;-0.168154;-1.29705;-0.381
19;0.09;0.0965078;0.00105324;-0.0251116;0.409649;0.000681803;0.000348748;0.0152699;-0.0249627;5.58481e-005;-6.08168e-006;-0.000149011;0.000408107;-5.31544e-006;5.88501e-007;2.31273e-005;-0.000149861;-1.09564e-005;18;-1.07983e-005;-3.15377e-007;-1.0847e-005;-0.00659596;18;-0.0502595;-7.44524e-005;-0.00279818;567.414;841.351;212.636;210.338;1841.7;0.000278976;6.97717e-005;4.69886e-007;1.18623e-007;-2.89657e-007;-2.57201e-008;0.015564;2.3129e-005;-0.00279818;-1.0847e-005;-0.0249627;-0.000149861;0.521207;0.000556691;-0.0630715;0;0;0;0;0;0;0;1.20024;0.000209153;0.194106;-0.381;2.61811;0;0;2.61811;0;0;1.19976;0.168309;-0.0970522;-0.381;0.523715;0;0;0.523715;0;0;1.2;-0.167891;-0.0970523;-0.381;-1.57103;0;0;-1.57103;0;0;1.44136;-0.29097;0.75337;1.47523;0.528102;1.16519;0.363;0.465876;0.881434;0;2.03667;0.881434;-1.5708;1.44177;0.7974;0.124999;1.47597;0.744928;1.04;0.363;1.62808;0.881902;0;-3.08431;0.881902;-1.5708;1.44176;0.7974;-0.125001;1.47597;0.744928;-1.04;0.363;4.65511;0.881902;0;-0.0572827;0.881902;-1.5708;1.44136;-0.29097;-0.753371;1.47522;0.528101;-1.16519;0.363;5.81731;0.881431;0;1.10492;0.881431;-1.5708;1.44094;-0.507476;-0.628371;1.47508;-1.27324;-0.125185;0.363;2.56024;0.881624;0;-2.15215;0.881624;-1.5708;1.44094;-0.507476;0.62837;1.47508;-1.27324;0.125185;0.363;3.72294;0.881627;0;-0.989444;0.881627;-1.5708;2.03667;0.881434;-1.5708;-3.08431;0.881902;-1.5708;-0.0572827;0.881902;-1.5708;1.10492;0.881431;-1.5708;-2.15215;0.881624;-1.5708;-0.989444;0.881627;-1.5708;-2.57201e-008;0;0;-1.563;0.000681824;1.563;-0.000348748;-0.000278976;-6.97717e-005;3.15377e-007;2.89657e-007;2.57201e-008;-5.88501e-007;-4.69886e-007;-1.18623e-007;-1.0393;0.794105;-0.381;1.20726;0.502947;-0.381;-0.16817;-1.29705;-0.381
20;0.095;0.105866;0.000985784;-0.0309527;0.458055;0.000527667;0.000433827;0.01817;-0.0308272;6.52446e-005;-6.87622e-006;-0.00015465;0.000408994;-6.09364e-006;7.11213e-007;2.59181e-005;-0.00015564;-1.20239e-005;19;-1.1915e-005;-3.75246e-007;-1.19737e-005;-0.00909296;19;-0.0552033;-8.93094e-005;-0.00314459;561.284;813.382;208.422;199.227;1791.51;0.000344463;8.9364e-005;5.60229e-007;1.50995e-007;-3.42845e-007;-3.24015e-008;0.0184677;2.59557e-005;-0.00314459;-1.19737e-005;-0.0308272;-0.00015564;0.580745;0.000565349;-0.0692824;0;0;0;0;0;0;0;1.2003;0.000255039;0.194106;-0.381;2.61814;0;0;2.61814;0;0;1.1997;0.168355;-0.0970521;-0.381;0.523742;0;0;0.523742;0;0;1.2;-0.167845;-0.0970522;-0.381;-1.57108;0;0;-1.57108;0;0;1.44143;-0.291055;0.75337;1.47526;0.528082;1.16519;0.363;0.465844;0.881416;0;2.03664;0.881416;-1.5708;1.44166;0.797315;0.124999;1.47583;0.744909;1.04;0.363;1.62801;0.881843;0;-3.08438;0.881843;-1.5708;1.44166;0.797315;-0.125001;1.47583;0.744909;-1.04;0.363;4.65518;0.881843;0;-0.0572115;0.881843;-1.5708;1.44142;-0.291055;-0.753371;1.47525;0.528082;-1.16519;0.363;5.81734;0.881412;0;1.10495;0.881412;-1.5708;1.44095;-0.507561;-0.628371;1.47514;-1.27326;-0.125185;0.363;2.5602;0.881681;0;-2.15219;0.881681;-1.5708;1.44096;-0.507561;0.62837;1.47515;-1.27326;0.125185;0.363;3.72298;0.881684;0;-0.989405;0.881684;-1.5708;2.03664;0.881416;-1.5708;-3.08438;0.881843;-1.5708;-0.0572115;0.881843;-1.5708;1.10495;0.881412;-1.5708;-2.15219;0.881681;-1.5708;-0.989405;0.881684;-1.5708;-3.24015e-008;0;0;-1.55925;0.000527703;1.55925;-0.000433827;-0.000344463;-8.9364e-005;3.75246e-007;3.42845e-007;3.24015e-008;-7.11213e-007;-5.60229e-007;-1.50995e-007;-1.03932;0.794105;-0.381;1.20724;0.502947;-0.381;-0.168189;-1.29705;-0.381
21;0.1;0.117927;0.000897331;-0.0375687;0.508132;0.000340307;0.000534192;0.0213714;-0.0374721;5.48872e-005;-7.6716e-006;-0.00015754;0.000394571;-6.88702e-006;8.47931e-007;2.87905e-005;-0.000158675;-1.3089e-005;20;-1.2915e-005;-4.40171e-007;-1.29849e-005;-0.00787763;20;-0.0597162;-0.000105969;-0.00351938;543.659;810.7;202.292;201.526;1767.37;0.000420779;0.000113413;6.58649e-007;1.89299e-007;-3.99944e-007;-4.02273e-008;0.0216783;2.87314e-005;-0.00351938;-1.29849e-005;-0.0374721;-0.000158675;0.642115;0.000555142;-0.0749579;0;0;0;0;0;0;0;1.20036;0.000307297;0.194106;-0.381;2.61817;0;0;2.61817;0;0;1.19964;0.168407;-0.0970521;-0.381;0.523774;0;0;0.523774;0;0;1.2;-0.167793;-0.0970522;-0.381;-1.57115;0;0;-1.57115;0;0;1.4415;-0.291155;0.75337;1.4753;0.528058;1.16519;0.363;0.465806;0.881397;0;2.0366;0.881397;-1.5708;1.44153;0.797214;0.124999;1.47567;0.744885;1.04;0.363;1.62792;0.881772;0;-3.08446;0.881772;-1.5708;1.44152;0.797214;-0.125001;1.47566;0.744885;-1.04;0.363;4.65526;0.881772;0;-0.0571284;0.881772;-1.5708;1.44149;-0.291156;-0.753371;1.47529;0.528058;-1.16519;0.363;5.81738;0.881392;0;1.10499;0.881392;-1.5708;1.44097;-0.507662;-0.628371;1.47522;-1.27328;-0.125185;0.363;2.56015;0.881749;0;-2.15223;0.881749;-1.5708;1.44098;-0.507661;0.62837;1.47523;-1.27328;0.125185;0.363;3.72303;0.881753;0;-0.989359;0.881753;-1.5708;2.0366;0.881397;-1.5708;-3.08446;0.881772;-1.5708;-0.0571284;0.881772;-1.5708;1.10499;0.881392;-1.5708;-2.15223;0.881749;-1.5708;-0.989359;0.881753;-1.5708;-4.02273e-008;0;0;-1.55056;0.000340376;1.55056;-0.000534192;-0.000420779;-0.000113413;4.40171e-007;3.99944e-007;4.02273e-008;-8.47931e-007;-6.58649e-007;-1.89299e-007;-1.03934;0.794105;-0.381;1.20722;0.502947;-0.381;-0.168213;-1.29705;-0.381
22;0.105;0.130368;0.000786672;-0.043844;0.561151;0.000121394;0.000651419;0.0248888;-0.0437826;6.12977e-005;-8.45784e-006;-0.000157756;0.000364361;-7.68221e-006;9.98154e-007;3.15181e-005;-0.000159038;-1.38438e-005;21;-1.37324e-005;-5.09243e-007;-1.38144e-005;-0.0106562;21;-0.0646069;-0.00012458;-0.00392492;537.146;778.135;201.143;194.629;1719.48;0.000508793;0.000142626;7.64168e-007;2.34011e-007;-4.59981e-007;-4.92617e-008;0.0252126;3.13581e-005;-0.00392492;-1.38144e-005;-0.0437826;-0.000159038;0.706868;0.000525329;-0.0811084;0;0;0;0;0;0;0;1.20044;0.000366088;0.194106;-0.381;2.61821;0;0;2.61821;0;0;1.19956;0.168466;-0.097052;-0.381;0.52381;0;0;0.52381;0;0;1.2;-0.167734;-0.0970521;-0.381;-1.57122;0;0;-1.57122;0;0;1.44158;-0.291272;0.75337;1.47535;0.528029;1.16519;0.363;0.465763;0.881375;0;2.03656;0.881375;-1.5708;1.44137;0.797097;0.124999;1.47547;0.744855;1.04;0.363;1.62783;0.881689;0;-3.08456;0.881689;-1.5708;1.44137;0.797097;-0.125001;1.47547;0.744855;-1.04;0.363;4.65536;0.88169;0;-0.0570326;0.88169;-1.5708;1.44157;-0.291273;-0.753371;1.47533;0.528029;-1.16519;0.363;5.81742;0.88137;0;1.10503;0.88137;-1.5708;1.441;-0.507779;-0.628371;1.47531;-1.27331;-0.125185;0.363;2.5601;0.881829;0;-2.15229;0.881829;-1.5708;1.441;-0.507779;0.62837;1.47532;-1.27331;0.125185;0.363;3.72308;0.881834;0;-0.989307;0.881834;-1.5708;2.03656;0.881375;-1.5708;-3.08456;0.881689;-1.5708;-0.0570326;0.88169;-1.5708;1.10503;0.88137;-1.5708;-2.15229;0.881829;-1.5708;-0.989307;0.881834;-1.5708;-4.92617e-008;0;0;-1.5076;0.000121637;1.5076;-0.000651419;-0.000508793;-0.000142626;5.09243e-007;4.59981e-007;4.92617e-008;-9.98154e-007;-7.64168e-007;-2.34011e-007;-1.03937;0.794105;-0.381;1.20719;0.502947;-0.381;-0.168243;-1.29705;-0.381
23;0.11;0.144528;0.000653129;-0.0510567;0.61835;-0.000133787;0.000787189;0.028747;-0.0510362;4.69868e-005;-9.2208e-006;-0.000155462;0.000327922;-8.46667e-006;1.16104e-006;3.39993e-005;-0.000156892;-1.44416e-005;22;-1.42676e-005;-5.81055e-007;-1.43624e-005;-0.00952745;22;-0.0717515;-0.000145331;-0.00437532;539.828;786.563;198.078;198.844;1731.36;0.000609422;0.000177767;8.75538e-007;2.85539e-007;-5.21513e-007;-5.95419e-008;0.0290955;3.37966e-005;-0.00437532;-1.43624e-005;-0.0510362;-0.000156892;0.776569;0.000487714;-0.0900794;0;0;0;0;0;0;0;1.20053;0.000431565;0.194106;-0.381;2.61825;0;0;2.61825;0;0;1.19947;0.168532;-0.0970519;-0.381;0.523852;0;0;0.523852;0;0;1.2;-0.167668;-0.0970521;-0.381;-1.5713;0;0;-1.5713;0;0;1.44168;-0.291408;0.753369;1.4754;0.527994;1.16519;0.363;0.465714;0.88135;0;2.03651;0.88135;-1.5708;1.4412;0.796961;0.124998;1.47525;0.74482;1.04;0.363;1.62772;0.881593;0;-3.08467;0.881593;-1.5708;1.44119;0.796961;-0.125002;1.47525;0.74482;-1.04;0.363;4.65547;0.881594;0;-0.056923;0.881594;-1.5708;1.44167;-0.291409;-0.753371;1.47539;0.527993;-1.16519;0.363;5.81747;0.881345;0;1.10508;0.881345;-1.5708;1.44103;-0.507915;-0.628371;1.47542;-1.27335;-0.125185;0.363;2.56004;0.881922;0;-2.15235;0.881922;-1.5708;1.44103;-0.507914;0.62837;1.47543;-1.27335;0.125185;0.363;3.72314;0.881927;0;-0.989246;0.881927;-1.5708;2.03651;0.88135;-1.5708;-3.08467;0.881593;-1.5708;-0.056923;0.881594;-1.5708;1.10508;0.881345;-1.5708;-2.15235;0.881922;-1.5708;-0.989246;0.881927;-1.5708;-5.95419e-008;0;0;1.5076;0.000134055;-1.5076;-0.000787189;-0.000609422;-0.000177767;5.81055e-007;5.21513e-007;5.95419e-008;-1.16104e-006;-8.75538e-007;-2.85539e-007;-1.03941;0.794105;-0.381;1.20715;0.502947;-0.381;-0.168278;-1.29705;-0.381
24;0.115;0.157434;0.000495606;-0.0579781;0.680502;-0.000423814;0.000943318;0.0329783;-0.0580054;4.84553e-005;-9.9524e-006;-0.000150854;0.000256018;-9.22881e-006;1.33509e-006;3.62544e-005;-0.000152429;-1.45668e-005;23;-1.44678e-005;-6.53935e-007;-1.4576e-005;-0.0121716;23;-0.0734274;-0.00016836;-0.00483641;530.25;782.349;209.571;203.825;1735.19;0.000723658;0.000219661;9.90953e-007;3.44193e-007;-5.82864e-007;-7.10706e-008;0.0333562;3.58248e-005;-0.00483641;-1.4576e-005;-0.0580054;-0.000152429;0.852141;0.000405625;-0.0922189;0;0;0;0;0;0;0;1.20063;0.000503897;0.194106;-0.381;2.6183;0;0;2.6183;0;0;1.19937;0.168604;-0.0970519;-0.381;0.5239;0;0;0.5239;0;0;1.2;-0.167596;-0.097052;-0.381;-1.5714;0;0;-1.5714;0;0;1.44179;-0.291564;0.753369;1.47546;0.527952;1.16519;0.363;0.465658;0.881323;0;2.03645;0.881323;-1.5708;1.441;0.796805;0.124998;1.47499;0.744778;1.04;0.363;1.62759;0.881484;0;-3.08479;0.881484;-1.5708;1.44099;0.796805;-0.125002;1.47499;0.744778;-1.04;0.363;4.65559;0.881485;0;-0.0567985;0.881485;-1.5708;1.44178;-0.291565;-0.753372;1.47545;0.527952;-1.16519;0.363;5.81753;0.881317;0;1.10514;0.881317;-1.5708;1.44106;-0.508071;-0.628371;1.47554;-1.27339;-0.125185;0.363;2.55997;0.882028;0;-2.15242;0.882028;-1.5708;1.44107;-0.50807;0.628369;1.47555;-1.27339;0.125185;0.363;3.72321;0.882033;0;-0.989178;0.882033;-1.5708;2.03645;0.881323;-1.5708;-3.08479;0.881484;-1.5708;-0.0567985;0.881485;-1.5708;1.10514;0.881317;-1.5708;-2.15242;0.882028;-1.5708;-0.989178;0.882033;-1.5708;-7.10706e-008;0;0;1.54902;0.000423915;-1.54902;-0.000943318;-0.000723658;-0.000219661;6.53935e-007;5.82864e-007;7.10706e-008;-1.33509e-006;-9.90953e-007;-3.44193e-007;-1.03945;0.794105;-0.381;1.20711;0.502947;-0.381;-0.16832;-1.29705;-0.381
25;0.12;0.170241;0.00031369;-0.0658722;0.747529;-0.000753583;0.00112177;0.0376169;-0.0659537;2.85225e-005;-1.06391e-005;-0.000144076;0.000182263;-9.95777e-006;1.51823e-006;3.78775e-005;-0.000145792;-1.4345e-005;24;-1.41929e-005;-7.25508e-007;-1.43146e-005;-0.0107637;24;-0.0788091;-0.000193779;-0.00533137;554.004;818.363;211.87;212.636;1805.69;0.000852572;0.000269196;1.10815e-006;4.10156e-007;-6.41701e-007;-8.38066e-008;0.0380237;3.74295e-005;-0.00533137;-1.43146e-005;-0.0659537;-0.000145792;0.933504;0.000320945;-0.0989916;0;0;0;0;0;0;0;1.20074;0.000583268;0.194106;-0.381;2.61835;0;0;2.61835;0;0;1.19926;0.168683;-0.0970518;-0.381;0.523953;0;0;0.523953;0;0;1.2;-0.167517;-0.097052;-0.381;-1.57151;0;0;-1.57151;0;0;1.44192;-0.291742;0.753369;1.47553;0.527902;1.16519;0.363;0.465595;0.881293;0;2.03639;0.881293;-1.5708;1.44077;0.796627;0.124998;1.47471;0.744729;1.04;0.363;1.62745;0.881361;0;-3.08493;0.881361;-1.5708;1.44077;0.796626;-0.125002;1.4747;0.744729;-1.04;0.363;4.65573;0.881362;0;-0.0566579;0.881362;-1.5708;1.44191;-0.291743;-0.753372;1.47552;0.527902;-1.16519;0.363;5.81759;0.881286;0;1.1052;0.881286;-1.5708;1.4411;-0.50825;-0.628372;1.47568;-1.27344;-0.125185;0.363;2.5599;0.882148;0;-2.15249;0.882148;-1.5708;1.44111;-0.508249;0.628369;1.47569;-1.27344;0.125185;0.363;3.72329;0.882153;0;-0.989101;0.882153;-1.5708;2.03639;0.881293;-1.5708;-3.08493;0.881361;-1.5708;-0.0566579;0.881362;-1.5708;1.1052;0.881286;-1.5708;-2.15249;0.882148;-1.5708;-0.989101;0.882153;-1.5708;-8.38066e-008;0;0;1.55758;0.000753649;-1.55758;-0.00112177;-0.000852572;-0.000269196;7.25508e-007;6.41701e-007;8.38066e-008;-1.51823e-006;-1.10815e-006;-4.10156e-007;-1.0395;0.794105;-0.381;1.20706;0.502947;-0.381;-0.168369;-1.29705;-0.381
26;0.125;0.180255;0.000106715;-0.0734457;0.81838;-0.00112153;0.00132463;0.0426912;-0.0735887;2.38116e-005;-1.12724e-005;-0.000135153;6.23996e-005;-1.06428e-005;1.70761e-006;3.90652e-005;-0.000137003;-1.34611e-005;25;-1.33967e-005;-7.93166e-007;-1.35317e-005;-0.0128884;25;-0.0747175;-0.00022161;-0.005801;555.153;807.635;208.805;196.545;1777.33;0.000997297;0.00032733;1.22425e-006;4.83449e-007;-6.9551e-007;-9.7656e-008;0.0431202;3.83207e-005;-0.005801;-1.35317e-005;-0.0735887;-0.000137003;1.0193;0.000178245;-0.0939261;0;0;0;0;0;0;0;1.20086;0.000669851;0.194106;-0.381;2.61841;0;0;2.61841;0;0;1.19914;0.16877;-0.0970518;-0.381;0.524014;0;0;0.524014;0;0;1.2;-0.16743;-0.097052;-0.381;-1.57163;0;0;-1.57163;0;0;1.44207;-0.291945;0.753369;1.47561;0.527844;1.16519;0.363;0.465525;0.881259;0;2.03632;0.881259;-1.5708;1.44052;0.796423;0.124998;1.47439;0.744671;1.04;0.363;1.6273;0.881223;0;-3.08509;0.881223;-1.5708;1.44051;0.796423;-0.125002;1.47438;0.744671;-1.04;0.363;4.65589;0.881224;0;-0.0564999;0.881224;-1.5708;1.44205;-0.291946;-0.753372;1.4756;0.527844;-1.16519;0.363;5.81766;0.881252;0;1.10527;0.881252;-1.5708;1.44115;-0.508452;-0.628372;1.47584;-1.2735;-0.125185;0.363;2.55981;0.882282;0;-2.15258;0.882282;-1.5708;1.44116;-0.508451;0.628369;1.47585;-1.2735;0.125185;0.363;3.72337;0.882288;0;-0.989014;0.882288;-1.5708;2.03632;0.881259;-1.5708;-3.08509;0.881223;-1.5708;-0.0564999;0.881224;-1.5708;1.10527;0.881252;-1.5708;-2.15258;0.882282;-1.5708;-0.989014;0.882288;-1.5708;-9.7656e-008;0;0;1.56131;0.00112158;-1.56131;-0.00132463;-0.000997297;-0.00032733;7.93166e-007;6.9551e-007;9.7656e-008;-1.70761e-006;-1.22425e-006;-4.83449e-007;-1.03956;0.794105;-0.381;1.207;0.502947;-0.381;-0.168427;-1.29705;-0.381
27;0.13;0.189312;-0.000125163;-0.081779;0.891118;-0.00153148;0.00155407;0.0482167;-0.0819907;-2.296e-006;-1.18372e-005;-0.000123984;-5.51124e-005;-1.12726e-005;1.89968e-006;3.92502e-005;-0.000125961;-1.2044e-005;26;-1.19393e-005;-8.536e-007;-1.20868e-005;-0.011002;26;-0.0759811;-0.00025181;-0.00627876;541.744;796.525;200.759;204.591;1752.05;0.00115897;0.000395094;1.33592e-006;5.63899e-007;-7.41136e-007;-1.12464e-007;0.0486558;3.85106e-005;-0.00627876;-1.20868e-005;-0.0819907;-0.000125961;1.10712;3.79743e-005;-0.0955521;0;0;0;0;0;0;0;1.201;0.000763758;0.194106;-0.381;2.61848;0;0;2.61848;0;0;1.199;0.168864;-0.0970517;-0.381;0.524081;0;0;0.524081;0;0;1.2;-0.167336;-0.0970519;-0.381;-1.57176;0;0;-1.57176;0;0;1.44223;-0.292174;0.753369;1.4757;0.527776;1.16519;0.363;0.465446;0.881221;0;2.03624;0.881221;-1.5708;1.44024;0.796194;0.124997;1.47403;0.744603;1.04;0.363;1.62712;0.88107;0;-3.08527;0.88107;-1.5708;1.44023;0.796193;-0.125003;1.47403;0.744603;-1.04001;0.363;4.65607;0.881071;0;-0.0563233;0.881071;-1.5708;1.44221;-0.292175;-0.753372;1.47568;0.527776;-1.16519;0.363;5.81774;0.881213;0;1.10535;0.881213;-1.5708;1.4412;-0.508681;-0.628372;1.47602;-1.27356;-0.125185;0.363;2.55971;0.882433;0;-2.15268;0.882433;-1.5708;1.44121;-0.50868;0.628369;1.47603;-1.27356;0.125185;0.363;3.72347;0.882439;0;-0.988917;0.882439;-1.5708;2.03624;0.881221;-1.5708;-3.08527;0.88107;-1.5708;-0.0563233;0.881071;-1.5708;1.10535;0.881213;-1.5708;-2.15268;0.882433;-1.5708;-0.988917;0.882439;-1.5708;-1.12464e-007;0;0;1.56344;0.00153152;-1.56344;-0.00155407;-0.00115897;-0.000395094;8.536e-007;7.41136e-007;1.12464e-007;-1.89968e-006;-1.33592e-006;-5.63899e-007;-1.03963;0.794105;-0.381;1.20694;0.502947;-0.381;-0.168495;-1.29705;-0.381
28;0.135;0.195716;-0.000381944;-0.0895956;0.963329;-0.0019809;0.00181227;0.0541914;-0.0898837;-1.3088e-005;-1.23231e-005;-0.00011039;-0.00022003;-1.1835e-005;2.09021e-006;3.87467e-005;-0.000112483;-9.80872e-006;27;-9.80262e-006;-9.03407e-007;-9.96129e-006;-0.0125312;27;-0.0666309;-0.000284252;-0.00669832;586.953;835.604;245.585;233.709;1911.43;0.00133868;0.000473586;1.43928e-006;6.51103e-007;-7.754e-007;-1.28007e-007;0.0546254;3.76997e-005;-0.00669832;-9.96129e-006;-0.0898837;-0.000112483;1.19392;-0.000162166;-0.0839115;0;0;0;0;0;0;0;1.20116;0.000864973;0.194106;-0.381;2.61855;0;0;2.61855;0;0;1.19884;0.168965;-0.0970517;-0.381;0.524156;0;0;0.524156;0;0;1.2;-0.167235;-0.0970519;-0.381;-1.57191;0;0;-1.57191;0;0;1.44241;-0.292432;0.753369;1.4758;0.527698;1.16519;0.363;0.465358;0.881179;0;2.03615;0.881179;-1.5708;1.43993;0.795935;0.124997;1.47364;0.744525;1.04;0.363;1.62692;0.880903;0;-3.08547;0.880903;-1.5708;1.43992;0.795935;-0.125003;1.47363;0.744524;-1.04001;0.363;4.65626;0.880904;0;-0.0561269;0.880904;-1.5708;1.44239;-0.292433;-0.753372;1.47578;0.527698;-1.16519;0.363;5.81783;0.881171;0;1.10544;0.881171;-1.5708;1.44125;-0.508939;-0.628372;1.47621;-1.27364;-0.125185;0.363;2.5596;0.882599;0;-2.15279;0.882599;-1.5708;1.44126;-0.508938;0.628369;1.47623;-1.27364;0.125185;0.363;3.72358;0.882606;0;-0.98881;0.882606;-1.5708;2.03615;0.881179;-1.5708;-3.08547;0.880903;-1.5708;-0.0561269;0.880904;-1.5708;1.10544;0.881171;-1.5708;-2.15279;0.882599;-1.5708;-0.98881;0.882606;-1.5708;-1.28007e-007;0;0;1.56482;0.00198093;-1.56482;-0.00181227;-0.00133868;-0.000473586;9.03407e-007;7.754e-007;1.28007e-007;-2.09021e-006;-1.43928e-006;-6.51103e-007;-1.0397;0.794105;-0.381;1.20686;0.502947;-0.381;-0.168574;-1.29705;-0.381
29;0.14;0.202228;-0.000662822;-0.0977763;1.03263;-0.00247164;0.00210136;0.060595;-0.0981482;-4.39283e-005;-1.27142e-005;-9.42083e-005;-0.000372715;-1.2317e-005;2.27436e-006;3.69437e-005;-9.64048e-005;-6.94844e-006;28;-6.91156e-006;-9.38804e-007;-7.0794e-006;-0.0103656;28;-0.0654092;-0.000318774;-0.00711045;570.479;818.363;214.552;204.208;1816.41;0.00153739;0.00056397;1.53017e-006;7.4441e-007;-7.94812e-007;-1.43992e-007;0.0610091;3.59609e-005;-0.00711045;-7.0794e-006;-0.0981482;-9.64048e-005;1.27674;-0.000347765;-0.0824257;0;0;0;0;0;0;0;1.20133;0.00097329;0.194106;-0.381;2.61863;0;0;2.61863;0;0;1.19867;0.169074;-0.0970517;-0.381;0.524239;0;0;0.524239;0;0;1.2;-0.167127;-0.0970519;-0.381;-1.57208;0;0;-1.57208;0;0;1.4426;-0.292721;0.753368;1.47591;0.527607;1.16519;0.363;0.465261;0.881132;0;2.03606;0.881132;-1.5708;1.43959;0.795645;0.124997;1.47321;0.744434;1.04;0.363;1.62671;0.880721;0;-3.08568;0.880721;-1.5708;1.43959;0.795645;-0.125003;1.47321;0.744434;-1.04001;0.363;4.65648;0.880722;0;-0.0559095;0.880722;-1.5708;1.44259;-0.292722;-0.753372;1.47589;0.527607;-1.16519;0.363;5.81793;0.881123;0;1.10554;0.881123;-1.5708;1.44131;-0.509228;-0.628372;1.47643;-1.27373;-0.125186;0.363;2.55948;0.882782;0;-2.1529;0.882782;-1.5708;1.44133;-0.509227;0.628369;1.47644;-1.27373;0.125184;0.363;3.7237;0.882789;0;-0.988691;0.882789;-1.5708;2.03606;0.881132;-1.5708;-3.08568;0.880721;-1.5708;-0.0559095;0.880722;-1.5708;1.10554;0.881123;-1.5708;-2.1529;0.882782;-1.5708;-0.988691;0.882789;-1.5708;-1.43992e-007;0;0;1.56581;0.00247167;-1.56581;-0.00210136;-0.00153739;-0.00056397;9.38804e-007;7.94812e-007;1.43992e-007;-2.27436e-006;-1.53017e-006;-7.4441e-007;-1.03979;0.794105;-0.381;1.20677;0.502946;-0.381;-0.168664;-1.29705;-0.381
30;0.145;0.207986;-0.000967223;-0.105205;1.09729;-0.00299998;0.00242332;0.0673928;-0.105668;-5.9492e-005;-1.30001e-005;-7.5387e-005;-0.000570299;-1.27054e-005;2.44679e-006;3.42854e-005;-7.76716e-005;-3.22739e-006;29;-3.29641e-006;-9.56157e-007;-3.47072e-006;-0.0115991;29;-0.0546845;-0.00035519;-0.00745575;547.491;799.973;203.058;208.039;1767.37;0.00175586;0.000667464;1.60417e-006;8.42895e-007;-7.96104e-007;-1.60054e-007;0.0677761;3.30092e-005;-0.00745575;-3.47072e-006;-0.105668;-7.76716e-005;1.3534;-0.000590347;-0.0690604;0;0;0;0;0;0;0;1.20152;0.00108827;0.194106;-0.381;2.61873;0;0;2.61873;0;0;1.19848;0.169188;-0.0970517;-0.381;0.52433;0;0;0.52433;0;0;1.2;-0.167012;-0.0970519;-0.381;-1.57226;0;0;-1.57226;0;0;1.44282;-0.293042;0.753368;1.47603;0.527504;1.16519;0.363;0.465155;0.881079;0;2.03595;0.881079;-1.5708;1.43923;0.795322;0.124997;1.47275;0.744331;1.04;0.363;1.62647;0.880525;0;-3.08592;0.880525;-1.5708;1.43923;0.795321;-0.125003;1.47275;0.74433;-1.04001;0.363;4.65672;0.880526;0;-0.0556702;0.880526;-1.5708;1.4428;-0.293044;-0.753373;1.47601;0.527504;-1.16519;0.363;5.81803;0.881071;0;1.10564;0.881071;-1.5708;1.44138;-0.509549;-0.628372;1.47666;-1.27384;-0.125186;0.363;2.55935;0.882981;0;-2.15304;0.882981;-1.5708;1.44139;-0.509548;0.628368;1.47667;-1.27384;0.125184;0.363;3.72383;0.882989;0;-0.98856;0.882989;-1.5708;2.03595;0.881079;-1.5708;-3.08592;0.880525;-1.5708;-0.0556702;0.880526;-1.5708;1.10564;0.881071;-1.5708;-2.15304;0.882981;-1.5708;-0.98856;0.882989;-1.5708;-1.60054e-007;0;0;1.56656;0.00300001;-1.56656;-0.00242332;-0.00175586;-0.000667464;9.56157e-007;7.96104e-007;1.60054e-007;-2.44679e-006;-1.60417e-006;-8.42895e-007;-1.0399;0.794105;-0.381;1.20666;0.502946;-0.381;-0.168768;-1.29705;-0.381
31;0.15;0.215895;-0.00129395;-0.112653;1.15664;-0.00356606;0.00277999;0.0745431;-0.113215;-9.24941e-005;-1.31676e-005;-5.40577e-005;-0.000741429;-1.29874e-005;2.60182e-006;3.01287e-005;-5.64129e-005;1.08346e-006;30;1.04058e-006;-9.51841e-007;8.63177e-007;-0.00972684;30;-0.0558868;-0.000393351;-0.00780874;555.92;804.187;210.721;205.357;1785;0.00199466;0.000785329;1.65682e-006;9.45356e-007;-7.76082e-007;-1.75759e-007;0.0748915;2.90048e-005;-0.00780874;8.63177e-007;-0.113215;-5.64129e-005;1.42308;-0.000800869;-0.070597;0;0;0;0;0;0;0;1.20173;0.00120921;0.194106;-0.381;2.61882;0;0;2.61882;0;0;1.19827;0.169309;-0.0970518;-0.381;0.52443;0;0;0.52443;0;0;1.2;-0.166891;-0.097052;-0.381;-1.57246;0;0;-1.57246;0;0;1.44305;-0.293398;0.753368;1.47615;0.527386;1.16519;0.363;0.465038;0.881021;0;2.03583;0.881021;-1.5708;1.43885;0.794964;0.124997;1.47226;0.744213;1.04;0.363;1.6262;0.880315;0;-3.08618;0.880315;-1.5708;1.43884;0.794963;-0.125003;1.47226;0.744213;-1.04001;0.363;4.65698;0.880316;0;-0.0554085;0.880316;-1.5708;1.44303;-0.2934;-0.753373;1.47613;0.527386;-1.16519;0.363;5.81815;0.881013;0;1.10576;0.881013;-1.5708;1.44144;-0.509905;-0.628373;1.47691;-1.27395;-0.125186;0.363;2.55921;0.883197;0;-2.15318;0.883197;-1.5708;1.44146;-0.509904;0.628368;1.47692;-1.27395;0.125184;0.363;3.72397;0.883205;0;-0.988417;0.883205;-1.5708;2.03583;0.881021;-1.5708;-3.08618;0.880315;-1.5708;-0.0554085;0.880316;-1.5708;1.10576;0.881013;-1.5708;-2.15318;0.883197;-1.5708;-0.988417;0.883205;-1.5708;-1.75759e-007;0;0;1.56715;0.00356608;-1.56715;-0.00277999;-0.00199466;-0.000785329;9.51841e-007;7.76082e-007;1.75759e-007;-2.60182e-006;-1.65682e-006;-9.45356e-007;-1.04002;0.794104;-0.381;1.20655;0.502946;-0.381;-0.168886;-1.29705;-0.381
32;0.155;0.224924;-0.00164222;-0.1193;1.21129;-0.00416589;0.00317303;0.0820069;-0.119967;-0.000111089;-1.3211e-005;-3.05758e-005;-0.000955279;-1.31524e-005;2.73352e-006;2.50786e-005;-3.29817e-005;6.16509e-006;31;6.0132e-006;-9.22658e-007;5.83676e-006;-0.0110864;31;-0.0484657;-0.000433162;-0.00811551;553.621;803.421;214.552;209.955;1789.59;0.00225417;0.000918854;1.68364e-006;1.05031e-006;-7.32041e-007;-1.90617e-007;0.0823243;2.36754e-005;-0.00811551;5.83676e-006;-0.119967;-3.29817e-005;1.48656;-0.0010659;-0.0613552;0;0;0;0;0;0;0;1.20195;0.00133521;0.194106;-0.381;2.61893;0;0;2.61893;0;0;1.19805;0.169435;-0.0970519;-0.381;0.524538;0;0;0.524538;0;0;1.2;-0.166765;-0.0970521;-0.381;-1.57268;0;0;-1.57268;0;0;1.4433;-0.293791;0.753368;1.47629;0.527253;1.16519;0.363;0.464912;0.880957;0;2.03571;0.880957;-1.5708;1.43844;0.794569;0.124997;1.47175;0.744079;1.04;0.363;1.62592;0.880093;0;-3.08647;0.880093;-1.5708;1.43843;0.794568;-0.125003;1.47174;0.744079;-1.04001;0.363;4.65727;0.880094;0;-0.0551237;0.880094;-1.5708;1.44329;-0.293792;-0.753373;1.47627;0.527252;-1.16519;0.363;5.81828;0.880948;0;1.10589;0.880948;-1.5708;1.44151;-0.510297;-0.628373;1.47717;-1.27409;-0.125186;0.363;2.55905;0.883429;0;-2.15333;0.883429;-1.5708;1.44152;-0.510295;0.628368;1.47719;-1.27409;0.125184;0.363;3.72413;0.883437;0;-0.988262;0.883437;-1.5708;2.03571;0.880957;-1.5708;-3.08647;0.880093;-1.5708;-0.0551237;0.880094;-1.5708;1.10589;0.880948;-1.5708;-2.15333;0.883429;-1.5708;-0.988262;0.883437;-1.5708;-1.90617e-007;0;0;1.56764;0.00416591;-1.56764;-0.00317303;-0.00225417;-0.000918854;9.22658e-007;7.32041e-007;1.90617e-007;-2.73352e-006;-1.68364e-006;-1.05031e-006;-1.04015;0.794104;-0.381;1.20641;0.502946;-0.381;-0.169019;-1.29705;-0.381
